stop_id,stop_name,stop_desc,stop_lat,stop_lon,zone_id,location_type,parent_station,platform_code
201_1,PURATCHI THALAIVAR DR.M.G.RAMACHANDRAN CENTRAL METRO,B2 ENTRANCE STAIRCASE (NEAR BY ESCALATOR DN/UP),13.0817803972222,80.273549025,SCC,0,104,5
202_1,EGMORE METRO,A2 ENTRANCE PHYSICALLY CHALLENGED RAMP ( NEAR BY LIFT),13.0787793472222,80.2611040055556,SEG,0,202,2
203_1,NEHRU PARK,A2 ENTRANCE STAIRCASE (NEAR BY ESCALATOR) ,13.0789291166667,80.2508745944444,SNP,0,203,2
204_1,KILPAUK,B1 ENTRANCE STAIRCASE ,13.0773447833333,80.2422100777778,SKM,0,204,4
205_1,PACHAIYAPPA,A2 ENTRANCE STAIRCASE (NEAR BY ESCALATOR) ,13.0759689027778,80.2334446722222,SPC,0,205,2
206_1,SHENOY NAGAR,B1 ENTRANCE PHYSICALLY CHALLENGED RAMP ( NEAR BY LIFT),13.0797144833333,80.2246325444445,SSN,0,206,4
207_1,ANNA NAGAR EAST,A1 ENTRANCE PHYSICALLY CHALLENGED RAMP ( NEAR BY LIFT) ,13.08472565,80.2200532833333,SAE,0,207,1
208_1,ANNA NAGAR TOWER,B3 ENTRANCE STAIRCASE,13.085177025,80.2084864833333,SAT,0,208,6
209_1,THIRUMANGALAM,A4 ENTRANCE PHYSICALLY CHALLENGED RAMP ( NEAR BY LIFT),13.0849977444444,80.2022091833333,STI,0,209,4
210_1,KOYAMBEDU,D ENTRANCE STAIRCASE ,13.0753311583333,80.1950661555556,SKO,0,210,4
211_1,PURATCHI THALAIVI DR.J.JAYALALITHAA CMBT METRO,D ENTRANCE PHYSICALLY CHALLENGED RAMP ( NEAR BY LIFT),13.0682418194444,80.204118675,SCM,0,211,4
212_1,ARUMBAKKAM,C ENTRANCE STAIRCASE ( NEAR BY LIFT),13.0618486722222,80.2119176666667,SAR,0,212,3
213_1,VADAPALANI,B ENTRANCE STAIRCASE & PHYSICALLY CHALLENGED RAMP ( NEAR BY LIFT) ,13.0510565027778,80.2116814472222,SVA,0,213,2
214_1,ASHOK NAGAR,C ENTRANCE STAIRCASE ,13.0353419472222,80.2106365111111,SAN,0,214,4
215_1,EKKATTUTHANGAL,A1 ENTRANCE STAIRCASE & PHYSICALLY CHALLENGED RAMP ( NEAR BY LIFT) ,13.0171069333333,80.2056878416667,SSI,0,215,2
216_1,ARIGNAR ANNA ALANDUR,C ENTRANCE (NEAR TO PHYSICALLY CHALLENGED RAMP & STAIRCASE) ,13.0037219694444,80.2015436111111,SAL,0,114,3
217_1,ST.THOMAS MOUNT,,12.9947486116903,80.1975543240622,SMM,0,217,1
217_2,ST.THOMAS MOUNT,A ENTRANCE STAIRCASE & PHYSICALLY CHALLENGED RAMP ( NEAR BY ESCALATOR & LIFT),12.9951379916667,80.1981200388889,SMM,0,217,1
101_1,WASHERMENPET METRO,B1 ENTRANCE STAIRCASE & PHYSICALLY CHALLENGED RAMP ( NEAR BY LIFT) ,13.1065732611111,80.2807641305556,SWA,0,101,3
102_1,MANNADI,A1A ENTRANCE PHYSICALLY CHALLENGED RAMP ( NEAR BY LIFT),13.0958973555556,80.2859951555556,SMA,0,102,1
103_1,HIGH COURT,A1 ENTRANCE STAIRCASE (NEAR BY ESCALATOR) ,13.087862625,80.2853305666667,SHC,0,103,1
104_1,PURATCHI THALAIVAR DR.M.G.RAMACHANDRAN CENTRAL METRO,A2 ENTRANCE STAIRCASE (NEAR BY ESCALATOR DN/UP),13.081145525,80.2746470916667,SCC,0,104,2
105_1,GOVERNMENT ESTATE,A2 ENTRANCE STAIRCASE ,13.0700436166667,80.2735028972222,SGE,0,105,2
106_1,LIC,A3 ENTRANCE STAIRCASE (NEAR BY ESCALATOR DN/UP) ,13.0654037333333,80.2665774111111,SLI,0,106,3
107_1,THOUSAND LIGHTS,A4 ENTRANCE STAIRCASE (NEAR BY ESCALATOR),13.0593679111111,80.2594745361111,STL,0,107,4
108_1,AG-DMS,A1 ENTRANCE STAIRCASE (NEAR BY ESCALATOR DN/UP) ,13.0459403916667,80.2485366833333,SGM,0,108,1
109_1,TEYNAMPET,A3 ENTRANCE STAIRCASE (NEAR BY ESCALATOR) ,13.03782035,80.2464093694445,STE,0,109,3
110_1,NANDANAM,B3 ENTRANCE STAIRCASE & PHYSICALLY CHALLENGED RAMP ( NEAR BY LIFT),13.03112925,80.2403598694445,SCR,0,110,6
111_1,SAIDAPET METRO,A3 ENTRANCE PHYSICALLY CHALLENGED RAMP (NEAR BY LIFT) ,13.024027175,80.2286365,SSA,0,111,3
112_1,LITTLE MOUNT,A ENTRANCE (NEAR BY STAIRCASE / LIFT & PHYSICALLY CHALLENGED RAMP) ,13.0145466944444,80.2242479861111,SLM,0,112,1
113_1,GUINDY METRO,B ENTRANCE STAIRCASE  ,13.0093688305556,80.2134394388889,SGU,0,113,1
114_1,ARIGNAR ANNA ALANDUR,B ENTRANCE STAIRCASE (NEAR BY PHYSICALLY CHALLENGED RAMP) ,13.0038844361111,80.2011999361111,SAL,0,114,2
115_1,NANGANALLUR ROAD,A2 ENTRANCE STAIRCASE (NEAR BY LIFT),12.9996830055556,80.1940575722222,SOT,0,115,2
116_1,MEENAMBAKKAM METRO,B1 ENTRANCE STAIRCASE ,12.987600875,80.1760309111111,SME,0,116,3
117_1,AIRPORT,B1  ENTRANCE STAIRCASE  ,12.9815929833333,80.1639009,SAP,0,117,2
201_2,PURATCHI THALAIVAR DR.M.G.RAMACHANDRAN CENTRAL METRO,B1A ENTRANCE LIFT (NEAR BY PHYSICALLY CHALLENGED RAMP),13.0809485527778,80.27333085,SCC,0,104,4
202_2,EGMORE METRO,A3 ENTRANCE STAIRCASE (NEAR BY ESCALATOR) ,13.0787863861111,80.2604038166667,SEG,0,202,3
203_2,NEHRU PARK,A3 ENTRANCE STAIRCASE (NEAR BY ESCALATOR) ,13.0786475222222,80.2509332666667,SNP,0,203,3
204_2,KILPAUK,B2 ENTRANCE PHYSICALLY CHALLENGED RAMP ( NEAR BY LIFT),13.0778028361111,80.2422920527778,SKM,0,204,5
205_2,PACHAIYAPPA,A1 ENTRANCE PHYSICALLY CHALLENGED RAMP ( NEAR BY LIFT),13.0757759472222,80.2329351805556,SPC,0,205,1
206_2,SHENOY NAGAR,B2 ENTRANCE STAIRCASE (NEAR BY ESCALATOR) ,13.0797954388889,80.2245367166667,SSN,0,206,5
207_2,ANNA NAGAR EAST,B1 ENTRANCE PHYSICALLY CHALLENGED RAMP ( NEAR BY LIFT) ,13.0844480361111,80.2190418666667,SAE,0,207,4
208_2,ANNA NAGAR TOWER,B1 ENTRANCE STAIRCASE ( NEAR BY LIFT & PHYSICALLY CHALLENGED RAMP),13.0848153916667,80.2084081388889,SAT,0,208,4
209_2,THIRUMANGALAM,B2 ENTRANCE STAIRCASE ,13.08543805,80.2009501583333,STI,0,209,6
210_2,KOYAMBEDU,D1 ENTRANCE PHYSICALLY CHALLENGED RAMP ( NEAR BY LIFT),13.0752400555556,80.1950214583333,SKO,0,210,4
211_2,PURATCHI THALAIVI DR.J.JAYALALITHAA CMBT METRO,C ENTRANCE STAIRCASE & PHYSICALLY CHALLENGED RAMP ( NEAR BY ESCALATOR DN/UP 2NOS ) ,13.068482,80.2042396,SCM,0,211,3
212_2,ARUMBAKKAM,B ENTRANCE STAIRCASE (NEAR BY ESCALATOR) ,13.0618430194444,80.2115229472222,SAR,0,212,2
213_2,VADAPALANI,A ENTRANCE STAIRCASE & PHYSICALLY CHALLENGED RAMP (NEAR BY LIFT & ESCALATOR ),13.0510373805556,80.2118866111111,SVA,0,213,1
214_2,ASHOK NAGAR,C1 ENTRANCE PHYSICALLY CHALLENGED RAMP ( NEAR BY LIFT),13.0353985305556,80.2107487222222,SAN,0,214,4
215_2,EKKATTUTHANGAL,A ENTRANCE STAIRCASE (NEAR BY ESCALATOR),13.0173617277778,80.2057645638889,SSI,0,215,1
216_2,ARIGNAR ANNA ALANDUR,A ENTRANCE STAIRCASE (NEAR BY PHYSICALLY CHALLENGED RAMP) ,13.0048187,80.2015844388889,SAL,0,114,1
101_2,WASHERMENPET METRO,B2 ENTRANCE STAIRCASE (NEAR BY ESCALATOR) ,13.1061952722222,80.2806327277778,SWA,0,101,4
102_2,MANNADI,B2 ENTRANCE STAIRCASE ,13.0945000277778,80.2857389222222,SMA,0,102,3
103_2,HIGH COURT,A1A ENTRANCE PHYSICALLY CHALLENGED RAMP (NEAR BY LIFT & STAIRCASE),13.0874514944444,80.2852448166667,SHC,0,103,1
104_2,PURATCHI THALAIVAR DR.M.G.RAMACHANDRAN CENTRAL METRO,B3 ENTRANCE PHYSICALLY CHALLENGED RAMP ( NEAR BY LIFT),13.0818489777778,80.2733961277778,SCC,0,104,6
105_2,GOVERNMENT ESTATE,A1 ENTRANCE STAIRCASE & PHYSICALLY CHALLENGED RAMP ( NEAR BY LIFT) ,13.0699019194444,80.2732995527778,SGE,0,105,1
106_2,LIC,A2 ENTRANCE STAIRCASE & PHYSICALLY CHALLENGED RAMP( NEAR BY LIFT) ,13.0649523944444,80.2668809833333,SLI,0,106,2
107_2,THOUSAND LIGHTS,A3 ENTRANCE STAIRCASE &  PHYSICALLY CHALLENGED RAMP ( NEAR BY LIFT) ,13.0585354527778,80.2588943583333,STL,0,107,3
108_2,AG-DMS,A2 ENTRANCE STAIRCASE & PHYSICALLY CHALLENGED RAMP ( NEAR BY LIFT),13.0456959833333,80.2483704666667,SGM,0,108,2
109_2,TEYNAMPET,A2 ENTRANCE STAIRCASE (NEAR BY ESCALATOR) ,13.0375444138889,80.2467439194444,STE,0,109,2
110_2,NANDANAM,A2 ENTRANCE STAIRCASE ( NEAR BY ESCALATOR ),13.0319198666667,80.2411575333333,SCR,0,110,2
111_2,SAIDAPET METRO,A2 ENTRANCE STAIRCASE ( NEAR BY ESCALATOR),13.0238034194444,80.2283617305556,SSA,0,111,2
112_2,LITTLE MOUNT,B1 ENTRANCE (NEAR BY STAIRCASE / LIFT & PHYSICALLY CHALLENGED RAMP) ,13.0148610138889,80.2241549722222,SLM,0,112,2
113_2,GUINDY METRO,A ENTRANCE STAIRCASE  ( NEAR BY ESCALATOR ),13.0088793722222,80.2127656277778,SGU,0,113,1
114_2,ARIGNAR ANNA ALANDUR,D ENTRANCE (NEAR TO PHYSICALLY CHALLENGED RAMP & STAIRCASE) ,13.0046519083333,80.2019735305556,SAL,0,114,4
115_2,NANGANALLUR ROAD,A1 ENTRANCE STAIRCASE ,12.9993950888889,80.1936977027778,SOT,0,115,1
116_2,MEENAMBAKKAM METRO,A1 ENTRANCE STAIRCASE ,12.9876627361111,80.1767858083333,SME,0,116,1
117_2,AIRPORT,A ENTRANCE STAIRCASE & PHYSICALLY CHALLENGED RAMP (NEAR BY ESCALATOR DN/UP),12.9806582111111,80.1641406083333,SAP,0,117,1
201_3,PURATCHI THALAIVAR DR.M.G.RAMACHANDRAN CENTRAL METRO,B1 ENTRANCE STAIRCASE (NEAR BY ESCALATOR DN/UP),13.0810142305556,80.2733430277778,SCC,0,104,3
141_1,WIMCO NAGAR DEPOT STATION,E1 ENTRANCE STAIRCASE & PHYSICALLY CHALLENGED RAMP ( NEAR BY LIFT),13.184303925,80.3091013416667,SWD,0,141,1
142_1,WIMCO NAGAR METRO,E1A ENTRANCE LIFT (NEAR TO PHYSICALLY CHALLENGED RAMP),13.1789251944444,80.3071405805556,SWN,0,142,1
143_1,THIRUVOTRIYUR METRO,E3 ENTRANCE STAIRCASE ,13.1725447722222,80.3055856111111,STV,0,143,2
144_1,THIRUVOTRIYUR THERADI METRO,E1 ENTRANCE PHYSICALLY CHALLENGED RAMP  ( NEAR BY STAIRCASE & LIFT),13.1597600722222,80.3022176222222,STT,0,144,1
145_1,KALADIPET METRO,E2 ENTRANCE STAIRCASE (NEAR BY ESCALATOR ) ,13.15090825,80.2996358694444,SKP,0,145,2
146_1,TOLLGATE METRO,E1 ENTRANCE PHYSICALLY CHALLENGED RAMP  ( NEAR BY STAIRCASE & LIFT),13.1426624888889,80.2960025472222,STG,0,146,1
147_1,NEW WASHERMENPET METRO,E1 ENTRANCE PHYSICALLY CHALLENGED RAMP ( NEAR BY LIFT) ,13.1340226805556,80.2927440944444,SNW,0,147,1
148_1,TONDIARPET METRO,E1 ENTRANCE STAIRCASE (NEAR BY ESCALATOR) ,13.1239886805556,80.2881719055556,STR,0,148,1
149_1,THIYAGARAYA COLLEGE METRO,E4 ENTRANCE STAIRCASE,13.1156164194444,80.284469275,STC,0,149,3
142_2,WIMCO NAGAR METRO,E3A ENTRANCE LIFT (NEAR BY PHYSICALLY CHALLENGED RAMP) ,13.1785542416667,80.3072800472222,SWN,0,142,2
143_2,THIRUVOTRIYUR METRO,E3A ENTRANCE PHYSICALLY CHALLENGED RAMP ( NEAR BY LIFT) ,13.1722997472222,80.3055007722222,STV,0,143,2
144_2,THIRUVOTRIYUR THERADI METRO,E2 ENTRANCE PHYSICALLY CHALLENGED RAMP  ( NEAR BY STAIRCASE & LIFT) ,13.1599661638889,80.3025425555556,STT,0,144,2
145_2,KALADIPET METRO,E3 ENTRANCE LIFT (NEAR BY PHYSICALLY CHALLENGED RAMP),13.1506352555556,80.2995336666667,SKP,0,145,3
146_2,TOLLGATE METRO,E3A ENTRANCE LIFT (NEAR TO PHYSICALLY CHALLENGED RAMP) ,13.1435289555556,80.2965954638889,STG,0,146,3
147_2,NEW WASHERMENPET METRO,E4 ENTRANCE PHYSICALLY CHALLENGED RAMP ( NEAR BY LIFT),13.1340295861111,80.2929173916667,SNW,0,147,4
148_2,TONDIARPET METRO,E4 ENTRANCE STAIRCASE,13.1234411638889,80.2880175777778,STR,0,148,4
149_2,THIYAGARAYA COLLEGE METRO,E4A ENTRANCE PHYSICALLY CHALLENGED RAMP ( NEAR BY LIFT),13.1156668527778,80.2845149361111,STC,0,149,3
104_3,PURATCHI THALAIVAR DR.M.G.RAMACHANDRAN CENTRAL METRO,B5 ENTRANCE STAIRCASE (NEAR BY ESCALATOR),13.0817527,80.2709361722222,SCC,0,104,8
201_4,PURATCHI THALAIVAR DR.M.G.RAMACHANDRAN CENTRAL METRO,A1 ENTRANCE STAIRCASE (NEAR BY ESCALATOR DN/UP) ,13.0823388027778,80.2745919194445,SCC,0,104,1
104_4_1,PURATCHI THALAIVAR DR.M.G.RAMACHANDRAN CENTRAL METRO,A1A ENTRANCE PHYSICALLY CHALLENGED RAMP ( NEAR BY LIFT),13.0823268777778,80.2744553888889,SCC,0,104,1
160_1,PURATCHI THALAIVAR DR.M.G.RAMACHANDRAN CENTRAL METRO,A1B ENTRANCE PHYSICALLY CHALLENGED RAMP ( NEAR BY LIFT),13.0823935472222,80.2744469388889,SCC,0,104,1
116_3,MEENAMBAKKAM METRO,B2 ENTRANCE PHYSICALLY CHALLENGED RAMP (NEAR BY LIFT),12.9877691611111,80.1762360138889,SME,0,116,4
116_4,MEENAMBAKKAM METRO,A2 ENTRANCE PHYSICALLY CHALLENGED RAMP (NEAR BY LIFT),12.9874725305556,80.1765459888889,SME,0,116,2
112_3,LITTLE MOUNT,B2  ENTRANCE STAIRCASE (NEAR BY LIFT & ESCALATOR),13.0149137722222,80.2241609305556,SLM,0,112,2
111_3,SAIDAPET METRO,B4 ENTRANCE STAIRCASE,13.0237450805556,80.228295,SSA,0,111,7
111_4,SAIDAPET METRO,B1 ENTRANCE PHYSICALLY CHALLENGED RAMP (NEAR BY LIFT),13.0234794416667,80.227998875,SSA,0,111,4
111_5,SAIDAPET METRO,B2 ENTRANCE STAIRCASE ( NEAR BY ESCALATOR DN/UP) ,13.0231955777778,80.2276800277778,SSA,0,111,5
111_6,SAIDAPET METRO,B3 ENTRANCE STAIRCASE  ,13.0241775111111,80.2281067833333,SSA,0,111,6
111_7,SAIDAPET METRO,A1 ENTRANCE STAIRCASE ( NEAR BY ESCALATOR DN/UP) ,13.0239786944444,80.2290752166667,SSA,0,111,1
110_3,NANDANAM,B2 ENTRANCE STAIRCASE & PHYSICALLY CHALLENGED RAMP ( NEAR BY LIFT) ,13.0308045805556,80.2400328611111,SCR,0,110,5
110_4,NANDANAM,B1 ENTRANCE STAIRCASE (NEAR BY ESCALATOR) ,13.0307879194444,80.2397199,SCR,0,110,4
110_5,NANDANAM,A1 ENTRANCE STAIRCASE (NEAR BY ESCALATOR) ,13.0319485777778,80.2419835083333,SCR,0,110,1
110_6,NANDANAM,A1A ENTRANCE STAIRCASE ,13.0318109305556,80.2419920611111,SCR,0,110,1
110_7,NANDANAM,A3 ENTRANCE STAIRCASE & PHYSICALLY CHALLENGED RAMP  ( NEAR BY LIFT) ,13.0320735638889,80.2414916222222,SCR,0,110,3
110_8,NANDANAM,B4A ENTRANCE STAIRCASE (NEAR BY ESCALATOR) ,13.0313205277778,80.2397392666667,SCR,0,110,7
110_9,NANDANAM,B4 ENTRANCE STAIRCASE (NEAR BY ESCALATOR),13.0313544527778,80.2397102055556,SCR,0,110,7
109_3,TEYNAMPET,A1 ENTRANCE PHYSICALLY CHALLENGED RAMP ( NEAR BY LIFT),13.0374838166667,80.2467794888889,STE,0,109,1
109_4,TEYNAMPET,B1 ENTRANCE STAIRCASE (NEAR BY ESCALATOR) ,13.03653115,80.2465044222222,STE,0,109,4
109_5,TEYNAMPET,B2 ENTRANCE STAIRCASE (NEAR BY ESCALATOR) ,13.037016275,80.2462322083333,STE,0,109,5
109_6,TEYNAMPET,B3 ENTRANCE PHYSICALLY CHALLENGED RAMP ( NEAR BY LIFT) ,13.0368489638889,80.2461863277778,STE,0,109,6
108_3,AG-DMS,A3 ENTRANCE STAIRCASE (NEAR BY ESCALATOR) ,13.0467505361111,80.2482626972222,SGM,0,108,3
108_4,AG-DMS,B2 ENTRANCE STAIRCASE ,13.0445443388889,80.2478176416667,SGM,0,108,5
108_5,AG-DMS,B3 ENTRANCE STAIRCASE &  PHYSICALLY CHALLENGED RAMP ( NEAR BY LIFT),13.0448382694444,80.2478847694444,SGM,0,108,6
108_6,AG-DMS,B1 ENTRANCE STAIRCASE ,13.0444232,80.2481247222222,SGM,0,108,4
108_7,AG-DMS,B1A ENTRANCE STAIRCASE ,13.0443863388889,80.2482134527778,SGM,0,108,4
107_3,THOUSAND LIGHTS,A2 ENTRANCE STAIRCASE ,13.0587659194444,80.2591860166667,STL,0,107,2
107_4,THOUSAND LIGHTS,A1 ENTRANCE STAIRCASE (NEAR BY ESCALATOR) ,13.0588419222222,80.2592826027778,STL,0,107,1
107_5,THOUSAND LIGHTS,B1 ENTRANCE STAIRCASE ,13.0580004472222,80.2582040805556,STL,0,107,5
107_6,THOUSAND LIGHTS,B2 ENTRANCE STAIRCASE ,13.0582265083333,80.2580626805556,STL,0,107,6
107_7,THOUSAND LIGHTS,B3 ENTRANCE PHYSICALLY CHALLENGED RAMP ( NEAR BY LIFT),13.0582448472222,80.2580855083333,STL,0,107,7
106_3,LIC,A1A ENTRANCE STAIRCASE ,13.06491175,80.266915625,SLI,0,106,1
106_4,LIC,A1 ENTRANCE STAIRCASE ,13.0648416805556,80.2666979694444,SLI,0,106,1
106_5,LIC,B2  ENTRANCE STAIRCASE (NEAR BY ESCALATOR),13.0645878222222,80.2663778388889,SLI,0,106,5
106_6,LIC,B1 ENTRANCE PHYSICALLY CHALLENGED RAMP ( NEAR BY LIFT),13.0646188805556,80.2664762722222,SLI,0,106,4
106_7,LIC,B4 ENTRANCE PHYSICALLY CHALLENGED RAMP ( NEAR BY LIFT),13.0643825055556,80.2654579,SLI,0,106,7
106_8,LIC,B3 ENTRANCE STAIRCASE,13.0644266194444,80.2655752722222,SLI,0,106,6
105_3,GOVERNMENT ESTATE,B2 ENTRANCE STAIRCASE ,13.0694027666667,80.2720999833333,SGE,0,105,6
105_4,GOVERNMENT ESTATE,A4 ENTRANCE STAIRCASE (NEAR BY LIFT & ESCALATOR),13.0701187916667,80.272792175,SGE,0,105,4
105_5,GOVERNMENT ESTATE,B1 ENTRANCE STAIRCASE (NEAR BY ESCALATOR) ,13.06884715,80.2723432583333,SGE,0,105,5
105_6,GOVERNMENT ESTATE,A3 ENTRANCE LIFT (NEAR BY PHYSICALLY CHALLENGED RAMP),13.0700427444444,80.2728330305556,SGE,0,105,3
160_2,PURATCHI THALAIVAR DR.M.G.RAMACHANDRAN CENTRAL METRO,A2A ENTRANCE PHYSICALLY CHALLENGED RAMP ( NEAR BY LIFT) ,13.0814210027778,80.2746011777778,SCC,0,104,2
201_5,PURATCHI THALAIVAR DR.M.G.RAMACHANDRAN CENTRAL METRO,A3 ENTRANCE PHYSICALLY CHALLENGED RAMP ( NEAR BY LIFT),13.0814046805556,80.2742774694444,SCC,0,104,3
103_3,HIGH COURT,A3 ENTRANCE STAIRCASE ,13.0882466944444,80.2847678527778,SHC,0,103,3
103_4,HIGH COURT,A4 ENTRANCE STAIRCASE & PHYSICALLY CHALLENGED RAMP ( NEAR BY LIFT),13.0885626527778,80.2857550194444,SHC,0,103,4
103_5,HIGH COURT,B1 ENTRANCE STAIRCASE (NEAR BY ESCALATOR) ,13.0868592055556,80.2850734555556,SHC,0,103,5
103_6,HIGH COURT,B2 ENTRANCE PHYSICALLY CHALLENGED RAMP ( NEAR BY LIFT),13.0868223055556,80.2847812805556,SHC,0,103,6
103_7,HIGH COURT,B3 ENTRANCE STAIRCASE,13.0862334055556,80.284608825,SHC,0,103,7
103_8,HIGH COURT,A2A ENTRANCE STAIRCASE & PHYSICALLY CHALLENGED RAMP ( NEAR BY LIFT) ,13.0871234638889,80.2841094305556,SHC,0,103,2
103_9,HIGH COURT,A2 ENTRANCE STAIRCASE (NEAR BY ESCALATOR) ,13.0877519083333,80.2840583861111,SHC,0,103,2
102_3,MANNADI,B1 ENTRANCE STAIRCASE (NEAR BY ESCALATOR) ,13.0952346,80.2862008972222,SMA,0,102,2
102_4,MANNADI,B1A ENTRANCE PHYSICALLY CHALLENGED RAMP ( NEAR BY LIFT),13.0948101388889,80.2861426027778,SMA,0,102,2
102_5,MANNADI,A1 ENTRANCE STAIRCASE (NEAR BY ESCALATOR) ,13.0961894444444,80.2859837583333,SMA,0,102,1
101_3,WASHERMENPET METRO,B3 ENTRANCE STAIRCASE (NEAR BY ESCALATOR) ,13.1069505416667,80.2805472,SWA,0,101,5
101_4,WASHERMENPET METRO,A1 ENTRANCE STAIRCASE (NEAR BY ESCALATOR) ,13.1082216527778,80.2808722111111,SWA,0,101,1
101_5,WASHERMENPET METRO,A2 ENTRANCE STAIRCASE,13.1085026472222,80.2812899805556,SWA,0,101,2
101_6,WASHERMENPET METRO,A2A ENTRANCE PHYSICALLY CHALLENGED RAMP ( NEAR BY LIFT) ,13.108265925,80.28119195,SWA,0,101,2
149_3,THIYAGARAYA COLLEGE METRO,E2 ENTRANCE PHYSICALLY CHALLENGED RAMP ( NEAR BY LIFT) ,13.1171851916667,80.2843119555556,STC,0,149,1
149_4,THIYAGARAYA COLLEGE METRO,E3 ENTRANCE STAIRCASE ,13.11700035,80.2849595694444,STC,0,149,2
149_5,THIYAGARAYA COLLEGE METRO,E3A ENTRANCE PHYSICALLY CHALLENGED RAMP ( NEAR BY LIFT) ,13.1169988888889,80.2848959083333,STC,0,149,2
148_3,TONDIARPET METRO,E4A ENTRANCE PHYSICALLY CHALLENGED RAMP ( NEAR BY LIFT),13.1235071222222,80.2880340944444,STR,0,148,4
148_4,TONDIARPET METRO,E3 ENTRANCE STAIRCASE (NEAR BY ESCALATOR),13.1249199888889,80.2890749833333,STR,0,148,3
148_5,TONDIARPET METRO,E3A ENTRANCE PHYSICALLY CHALLENGED RAMP ( NEAR BY LIFT) ,13.1247609666667,80.2889952222222,STR,0,148,3
148_6,TONDIARPET METRO,E2 ENTRANCE STAIRCASE (NEAR BY ESCALATOR) ,13.124605075,80.2886465305556,STR,0,148,2
147_3,NEW WASHERMENPET METRO,E3 ENTRANCE STAIRCASE (NEAR BY ESCALATOR) ,13.1343181222222,80.2930149972222,SNW,0,147,3
147_4,NEW WASHERMENPET METRO,E2 ENTRANCE PHYSICALLY CHALLENGED RAMP  ( NEAR BY STAIRCASE & LIFT) ,13.1344778277778,80.2928890027778,SNW,0,147,2
146_3,TOLLGATE METRO,E2 ENTRANCE STAIRCASE ,13.1438323888889,80.2964999361111,STG,0,146,2
146_4,TOLLGATE METRO,E3 ENTRANCE STAIRCASE (NEAR BY ESCALATOR ) ,13.1437727944444,80.2966845388889,STG,0,146,3
145_3,KALADIPET METRO,E1 ENTRANCE STAIRCASE (NEAR BY ESCALATOR ) ,13.1507280611111,80.2993001833333,SKP,0,145,1
145_4,KALADIPET METRO,E1A ENTRANCE LIFT (NEAR TO PHYSICALLY CHALLENGED RAMP),13.1504702722222,80.2991938138889,SKP,0,145,1
143_3,THIRUVOTRIYUR METRO,E2 ENTRANCE STAIRCASE (NEAR BY ESCALATOR) ,13.1723010166667,80.3052476361111,STV,0,143,1
143_4,THIRUVOTRIYUR METRO,E2A ENTRANCE LIFT (NEAR BY PHYSICALLY CHALLENGED RAMP) ,13.1720745555556,80.3052029583333,STV,0,143,1
142_3,WIMCO NAGAR METRO,E1 ENTRANCE STAIRCASE (NEAR BY ESCALATOR) ,13.1785958361111,80.3070125777778,SWN,0,142,1
142_4,WIMCO NAGAR METRO,E3 ENTRANCE STAIRCASE ,13.1783471972222,80.3071923944444,SWN,0,142,2
215_3,EKKATTUTHANGAL,B ENTRANCE STAIRCASE & PHYSICALLY CHALLENGED  RAMP( NEAR BY LIFT) ,13.01718235,80.2053645388889,SSI,0,215,3
215_4,EKKATTUTHANGAL,B1 ENTRANCE STAIRCASE & PHYSICALLY CHALLENGED RAMP ( NEAR BY LIFT) ,13.0171904,80.2053245472222,SSI,0,215,3
214_3,ASHOK NAGAR,D ENTRANCE STAIRCASE & PHYSICALLY CHALLENGED RAMP (NEAR BY ESCALATOR & LIFT) ,13.0352129027778,80.2108626027778,SAN,0,214,5
214_4,ASHOK NAGAR,A ENTRANCE STAIRCASE ,13.03568825,80.2116624555556,SAN,0,214,1
214_5,ASHOK NAGAR,B1 ENTRANCE STAIRCASE ,13.0354530333333,80.2113274805556,SAN,0,214,2
214_6,ASHOK NAGAR,B2 ENTRANCE STAIRCASE ,13.0355107361111,80.2112950805556,SAN,0,214,3
214_7,ASHOK NAGAR,F ENTRANCE STAIRCASE ,13.0349172472222,80.2103743194444,SAN,0,214,7
213_3,VADAPALANI,C ENTRANCE STAIRCASE & PHYSICALLY CHALLENGED RAMP ( NEAR BY LIFT),13.0510038805556,80.2122934361111,SVA,0,213,3
213_4,VADAPALANI,D ENTRANCE STAIRCASE ,13.0508004138889,80.2123037472222,SVA,0,213,4
212_3,ARUMBAKKAM,D ENTRANCE PHYSICALLY CHALLENGED RAMP ( NEAR BY LIFT),13.0615235277778,80.2114708277778,SAR,0,212,4
212_4,ARUMBAKKAM,A1 ENTRANCE STAIRCASE (NEAR BY ESCALATOR DN/UP) ,13.0615863666667,80.2118915027778,SAR,0,212,1
212_5,ARUMBAKKAM,A ENTRANCE STAIRCASE & PHYSICALLY CHALLENGED RAMP ( NEAR BY ESCALATOR DN/UP & LIFT) ,13.0615885666667,80.2118265305556,SAR,0,212,1
211_3,PURATCHI THALAIVI DR.J.JAYALALITHAA CMBT METRO,B ENTRANCE STAIRCASE & PHYSICALLY CHALLENGED RAMP  ,13.0685067111111,80.2040454611111,SCM,0,211,2
211_4,PURATCHI THALAIVI DR.J.JAYALALITHAA CMBT METRO,A ENTRANCE STAIRCASE ,13.0682993388889,80.2036010555556,SCM,0,211,1
210_3,KOYAMBEDU,C ENTRANCE STAIRCASE ,13.0726134,80.1946396277778,SKO,0,210,3
210_4,KOYAMBEDU,B ENTRANCE STAIRCASE (NEAR BY ESCALATOR) ,13.0731255972222,80.1951071638889,SKO,0,210,2
210_5,KOYAMBEDU,E ENTRANCE PHYSICALLY CHALLENGED RAMP ( NEAR BY LIFT),13.07336925,80.1951400388889,SKO,0,210,5
210_6,KOYAMBEDU,A ENTRANCE STAIRCASE (NEAR BY ESCALATOR DN/UP) ,13.0738383416667,80.1951719722222,SKO,0,210,1
209_3,THIRUMANGALAM,B1 ENTRANCE STAIRCASE ,13.0851046083333,80.2011034166667,STI,0,209,5
209_4,THIRUMANGALAM,A1 ENTRANCE STAIRCASE & PHYSICALLY CHALLENGED RAMP ( NEAR BY LIFT) ,13.0854214444444,80.2020008805556,STI,0,209,1
209_5,THIRUMANGALAM,A2 ENTRANCE STAIRCASE (NEAR BY ESCALATOR) ,13.085419475,80.2023764944445,STI,0,209,2
209_6,THIRUMANGALAM,A3 ENTRANCE STAIRCASE (NEAR BY ESCALATOR) ,13.0850434833333,80.202322775,STI,0,209,3
208_3,ANNA NAGAR TOWER,A1 ENTRANCE PHYSICALLY CHALLENGED RAMP ( NEAR BY LIFT),13.0851552222222,80.2092820638889,SAT,0,208,1
208_4,ANNA NAGAR TOWER,A3 ENTRANCE  STAIRCASE (NEAR BY ESCALATOR) ,13.0847840333333,80.2096916361111,SAT,0,208,3
208_5,ANNA NAGAR TOWER,A2 ENTRANCE (STAIRCASE / PHYSICALLY CHALLENGED RAMP/ ESCALATOR & LIFT),13.0851190888889,80.2096120083333,SAT,0,208,2
208_6,ANNA NAGAR TOWER,B2 ENTRANCE STAIRCASE ( NEAR BY LIFT & PHYSICALLY CHALLENGED RAMP),13.0848153916667,80.2084081388889,SAT,0,208,5
207_3,ANNA NAGAR EAST,A3 ENTRANCE STAIRCASE (NEAR BY ESCALATOR) ,13.0844285777778,80.219639575,SAE,0,207,3
207_4,ANNA NAGAR EAST,A2 ENTRANCE STAIRCASE (NEAR BY ESCALATOR) ,13.0846862611111,80.2196122638889,SAE,0,207,2
207_5,ANNA NAGAR EAST,B2 ENTRANCE STAIRCASE ,13.0844704416667,80.21911105,SAE,0,207,5
207_6,ANNA NAGAR EAST,B3 ENTRANCE STAIRCASE (NEAR BY ESCALATOR) ,13.0847245138889,80.2186813555556,SAE,0,207,6
207_7,ANNA NAGAR EAST,A4 ENTRANCE STAIRCASE ,13.0851321055556,80.2177867694444,SAE,0,207,7
207_8,ANNA NAGAR EAST,A5 ENTRANCE STAIRCASE ,13.0844720583333,80.2176794277778,SAE,0,207,8
207_9,ANNA NAGAR EAST,A5A ENTRANCE PHYSICALLY CHALLENGED RAMP ( NEAR BY LIFT) ,13.0845131472222,80.2175151027778,SAE,0,207,8
206_3,SHENOY NAGAR,B3 ENTRANCE STAIRCASE (NEAR BY ESCALATOR) ,13.0796927388889,80.2258531861111,SSN,0,206,6
206_4,SHENOY NAGAR,A1 ENTRANCE PHYSICALLY CHALLENGED RAMP ( NEAR BY LIFT),13.07785325,80.2252408805556,SSN,0,206,1
206_5,SHENOY NAGAR,A2 ENTRANCE STAIRCASE (NEAR BY ESCALATOR) ,13.0776902333333,80.2252862333333,SSN,0,206,2
206_6,SHENOY NAGAR,A3 ENTRANCE STAIRCASE (NEAR BY ESCALATOR)  ,13.0777293805556,80.2247904027778,SSN,0,206,3
205_3,PACHAIYAPPA,B2 ENTRANCE STAIRCASE ,13.0752851361111,80.2326012166667,SPC,0,205,4
205_4,PACHAIYAPPA,B1 ENTRANCE PHYSICALLY CHALLENGED RAMP ( NEAR BY LIFT),13.0751904222222,80.2322271333333,SPC,0,205,3
205_5,PACHAIYAPPA,B3 ENTRANCE STAIRCASE (NEAR BY ESCALATOR) ,13.0754042666667,80.2318477388889,SPC,0,205,5
204_3,KILPAUK,B3 ENTRANCE STAIRCASE (NEAR BY ESCALATOR) ,13.0778113861111,80.2421955555556,SKM,0,204,6
204_4,KILPAUK,A3 ENTRANCE STAIRCASE (NEAR BY ESCALATOR DN/UP) ,13.0775984222222,80.2433034194444,SKM,0,204,3
204_5,KILPAUK,A2 ENTRANCE PHYSICALLY CHALLENGED RAMP ( NEAR BY LIFT),13.0775543722222,80.2431863944445,SKM,0,204,2
204_6,KILPAUK,A1 ENTRANCE STAIRCASE ,13.0778722944444,80.243000675,SKM,0,204,1
203_3,NEHRU PARK,B1 ENTRANCE PHYSICALLY CHALLENGED RAMP ( NEAR BY LIFT) ,13.0784699277778,80.2496808944445,SNP,0,203,4
203_4,NEHRU PARK,B3 ENTRANCE STAIRCASE,13.078844375,80.2495722666667,SNP,0,203,6
203_5,NEHRU PARK,A1 ENTRANCE PHYSICALLY CHALLENGED RAMP ( NEAR BY LIFT) ,13.0789243416667,80.2504529444445,SNP,0,203,1
203_6,NEHRU PARK,B2 ENTRANCE STAIRCASE (NEAR BY ESCALATOR) ,13.0784778388889,80.2492168666667,SNP,0,203,5
202_3,EGMORE METRO,B1 ENTRANCE STAIRCASE & PHYSICALLY CHALLENGED RAMP ( NEAR BY LIFT) ,13.0791643333333,80.2613901361111,SEG,0,202,4
202_4,EGMORE METRO,A1 ENTRANCE STAIRCASE (NEAR BY ESCALATOR) ,13.0789100888889,80.2615416,SEG,0,202,1
202_5,EGMORE METRO,B2 ENTRANCE STAIRCASE (NEAR BY ESCALATOR DN/UP) ,13.0795756777778,80.2613894,SEG,0,202,5


104,PURATCHI THALAIVAR DR.M.G.RAMACHANDRAN CENTRAL METRO,,13.0814278369008,80.2729075947633,SCC,1,,
202,EGMORE METRO,,13.0789665138486,80.2609527908126,SEG,1,,
203,NEHRU PARK,,13.078611539333,80.2500877161602,SNP,1,,
204,KILPAUK,,13.0774583333333,80.2426277777777,SKM,1,,
205,PACHAIYAPPA,,13.0753871698823,80.2333847555819,SPC,1,,
206,SHENOY NAGAR,,13.0783722222222,80.2251166666666,SSN,1,,
207,ANNA NAGAR EAST,,13.0845480398521,80.2195665482508,SAE,1,,
208,ANNA NAGAR TOWER,,13.084946899686,80.2089036521052,SAT,1,,
209,THIRUMANGALAM,,13.0852057015341,80.2015389755152,STI,1,,
210,KOYAMBEDU,,13.0733611111111,80.194875,SKO,1,,
211,PURATCHI THALAIVI DR.J.JAYALALITHAA CMBT METRO,,13.0684826617331,80.2039458648564,SCM,1,,
212,ARUMBAKKAM,,13.0620055555555,80.2117027777777,SAR,1,,
213,VADAPALANI,,13.0506972222222,80.212075,SVA,1,,
214,ASHOK NAGAR,,13.0354926945213,80.2110574620364,SAN,1,,
215,EKKATTUTHANGAL,,13.0165209328502,80.2052816905165,SSI,1,,
114,ARIGNAR ANNA ALANDUR,,13.0041955899379,80.2015729878512,SAL,1,,
217,ST.THOMAS MOUNT,,12.9947486116903,80.1975543240622,SMM,1,,
101,WASHERMENPET METRO,,13.1072181538364,80.28078720715,SWA,1,,
102,MANNADI,,13.0954195481676,80.2860944786235,SMA,1,,
103,HIGH COURT,,13.0870682009495,80.2850252375623,SHC,1,,
105,GOVERNMENT ESTATE,,13.0695605560349,80.2728393302093,SGE,1,,
106,LIC,,13.064554966336,80.2661008897026,SLI,1,,
107,THOUSAND LIGHTS,,13.0583556960582,80.2585174189927,STL,1,,
108,AG-DMS,,13.0446825453354,80.2480328953418,SGM,1,,
109,TEYNAMPET,,13.0371184281625,80.2464608951659,STE,1,,
110,NANDANAM,,13.0316511399874,80.2410427600109,SCR,1,,
111,SAIDAPET METRO,,13.0235991970907,80.2283601008055,SSA,1,,
112,LITTLE MOUNT,,13.0144841144851,80.2239765743067,SLM,1,,
113,GUINDY METRO,,13.0091657741096,80.2130302370042,SGU,1,,
115,NANGANALLUR ROAD,,12.9999661022836,80.1941563192857,SOT,1,,
116,MEENAMBAKKAM METRO,,12.987750855203,80.1765865612356,SME,1,,
117,AIRPORT,,12.9809762425917,80.1642541413904,SAP,1,,
141,WIMCO NAGAR DEPOT STATION,,13.1842801653482,80.3091081576299,SWD,1,,
142,WIMCO NAGAR METRO,,13.1789919458751,80.3071594214505,SWN,1,,
143,THIRUVOTRIYUR METRO,,13.1722674850635,80.3053604844178,STV,1,,
144,THIRUVOTRIYUR THERADI METRO,,13.1598262414011,80.3023357301322,STT,1,,
145,KALADIPET METRO,,13.1510453452113,80.2994119801748,SKP,1,,
146,TOLLGATE METRO,,13.1435188709634,80.2963194179969,STG,1,,
147,NEW WASHERMENPET METRO,,13.1347733580718,80.2929550158724,SNW,1,,
148,TONDIARPET METRO,,13.1238111748783,80.2881989835829,STR,1,,
149,THIYAGARAYA COLLEGE METRO,,13.1165979211328,80.2851276046741,STC,1,,
